[
  {
    "name": "Macado's",
    "address": "140 Jackson St, Blacksburg, VA",
    "cuisine_type": "American",
    "price_range": "$$",
    "rating": 4.2,
    "distance_to_vt": 0.9,
    "phone": "(540) 552-1234",
    "website": null,
    "hours": null,
    "delivery_available": true,
    "takeout_available": true
  },
  {
    "name": "Cabo Fish Taco",
    "address": "116 College Ave, Blacksburg, VA",
    "cuisine_type": "Mexican/Seafood",
    "price_range": "$$",
    "rating": 4.4,
    "distance_to_vt": 2.4,
    "phone": "(540) 552-2345",
    "website": null,
    "hours": null,
    "delivery_available": false,
    "takeout_available": true
  },
  {
    "name": "Gillie's",
    "address": "153 College Ave, Blacksburg, VA",
    "cuisine_type": "Vegetarian/Vegan",
    "price_range": "$$",
    "rating": 4.6,
    "distance_to_vt": 2.9,
    "phone": "(540) 552-3456",
    "website": null,
    "hours": null,
    "delivery_available": true,
    "takeout_available": true
  },
  {
    "name": "Boudreaux's Louisiana Kitchen",
    "address": "211 College Ave, Blacksburg, VA",
    "cuisine_type": "Cajun/Creole",
    "price_range": "$$$",
    "rating": 4.3,
    "distance_to_vt": 4.6,
    "phone": "(540) 552-4567",
    "website": null,
    "hours": null,
    "delivery_available": false,
    "takeout_available": true
  },
  {
    "name": "Pizza Hut",
    "address": "2001 S Main St, Blacksburg, VA",
    "cuisine_type": "Pizza",
    "price_range": "$",
    "rating": 3.8,
    "distance_to_vt": 1.9,
    "phone": "(540) 552-5678",
    "website": null,
    "hours": null,
    "delivery_available": true,
    "takeout_available": true
  },
  {
    "name": "Subway",
    "address": "1501 S Main St, Blacksburg, VA",
    "cuisine_type": "Sandwiches",
    "price_range": "$",
    "rating": 3.9,
    "distance_to_vt": 2.2,
    "phone": "(540) 552-6789",
    "website": null,
    "hours": null,
    "delivery_available": true,
    "takeout_available": true
  },
  {
    "name": "The Cellar",
    "address": "302 N Main St, Blacksburg, VA",
    "cuisine_type": "American/Bar",
    "price_range": "$$",
    "rating": 4.1,
    "distance_to_vt": 2.8,
    "phone": "(540) 552-7890",
    "website": null,
    "hours": null,
    "delivery_available": false,
    "takeout_available": true
  },
  {
    "name": "China Inn",
    "address": "1902 S Main St, Blacksburg, VA",
    "cuisine_type": "Chinese",
    "price_range": "$",
    "rating": 4.0,
    "distance_to_vt": 4.3,
    "phone": "(540) 552-8901",
    "website": null,
    "hours": null,
    "delivery_available": true,
    "takeout_available": true
  }
]